{"licence": "ODbL 1.0", "limit": 20, "features": [{"geometry": {"coordinates": [4.619787, 47.997636], "type": "Point"}, "type": "Feature", "properties": {"population": 0.1, "y": 6767600, "citycode": "21034", "context": "21, C\u00f4te-d'Or, Bourgogne-Franche-Comt\u00e9 (Bourgogne)", "postcode": "21570", "score": 0.825, "city": "Autricourt", "type": "municipality", "adm_weight": 1, "importance": 0.075, "x": 820800, "name": "Autricourt", "id": "21034", "label": "Autricourt"}}, {"geometry": {"coordinates": [4.653013, 47.944966], "type": "Point"}, "type": "Feature", "properties": {"population": 0.3, "y": 6761800, "citycode": "21058", "context": "21, C\u00f4te-d'Or, Bourgogne-Franche-Comt\u00e9 (Bourgogne)", "postcode": "21570", "score": 0.825, "city": "Belan-sur-Ource", "type": "municipality", "adm_weight": 1, "importance": 0.075, "x": 823400, "name": "Belan-sur-Ource", "id": "21058", "label": "Belan-sur-Ource"}}, {"geometry": {"coordinates": [4.586544, 48.00709], "type": "Point"}, "type": "Feature", "properties": {"population": 0.2, "y": 6768600, "citycode": "21305", "context": "21, C\u00f4te-d'Or, Bourgogne-Franche-Comt\u00e9 (Bourgogne)", "postcode": "21570", "score": 0.825, "city": "Grancey-sur-Ource", "type": "municipality", "adm_weight": 1, "importance": 0.075, "x": 818300, "name": "Grancey-sur-Ource", "id": "21305", "label": "Grancey-sur-Ource"}}, {"geometry": {"coordinates": [4.674037, 47.974373], "type": "Point"}, "type": "Feature", "properties": {"population": 0.1, "y": 6765100, "citycode": "21524", "context": "21, C\u00f4te-d'Or, Bourgogne-Franche-Comt\u00e9 (Bourgogne)", "postcode": "21570", "score": 0.825, "city": "Riel-les-Eaux", "type": "municipality", "adm_weight": 1, "importance": 0.075, "x": 824900, "name": "Riel-les-Eaux", "id": "21524", "label": "Riel-les-Eaux"}}, {"geometry": {"coordinates": [4.662823, 47.916023], "type": "Point"}, "type": "Feature", "properties": {"population": 0.2, "y": 6758600, "citycode": "21109", "context": "21, C\u00f4te-d'Or, Bourgogne-Franche-Comt\u00e9 (Bourgogne)", "postcode": "21570", "score": 0.825, "city": "Brion-sur-Ource", "type": "municipality", "adm_weight": 1, "importance": 0.075, "x": 824200, "name": "Brion-sur-Ource", "id": "21109", "label": "Brion-sur-Ource"}}, {"geometry": {"coordinates": [4.675466, 47.934747], "type": "Point"}, "type": "Feature", "properties": {"population": 0.1, "y": 6760700, "citycode": "21628", "context": "21, C\u00f4te-d'Or, Bourgogne-Franche-Comt\u00e9 (Bourgogne)", "postcode": "21570", "score": 0.825, "city": "Thoires", "type": "municipality", "adm_weight": 1, "importance": 0.075, "x": 825100, "name": "Thoires", "id": "21628", "label": "Thoires"}}, {"geometry": {"coordinates": [4.652625, 47.945269], "type": "Point"}, "type": "Feature", "properties": {"context": "21, C\u00f4te-d'Or, Bourgogne-Franche-Comt\u00e9 (Bourgogne)", "y": 6761833.0, "citycode": "21058", "postcode": "21570", "score": 0.6370727272727272, "city": "Belan-sur-Ource", "type": "street", "x": 823370.4, "importance": 0.0078, "name": "Rue Tanneguy d'Harcourt", "id": "21058_XXXX_efe005", "label": "Rue Tanneguy d'Harcourt 21570 Belan-sur-Ource"}}, {"geometry": {"coordinates": [4.655004, 47.944651], "type": "Point"}, "type": "Feature", "properties": {"context": "21, C\u00f4te-d'Or, Bourgogne-Franche-Comt\u00e9 (Bourgogne)", "y": 6761768.1, "citycode": "21058", "postcode": "21570", "score": 0.6369909090909089, "city": "Belan-sur-Ource", "type": "street", "x": 823549.4, "importance": 0.0069, "name": "Rue du Moulin", "id": "21058_0115_f4b304", "label": "Rue du Moulin 21570 Belan-sur-Ource"}}, {"geometry": {"coordinates": [4.653966, 47.943923], "type": "Point"}, "type": "Feature", "properties": {"context": "21, C\u00f4te-d'Or, Bourgogne-Franche-Comt\u00e9 (Bourgogne)", "y": 6761685.6, "citycode": "21058", "postcode": "21570", "score": 0.6369727272727271, "city": "Belan-sur-Ource", "type": "street", "x": 823473.6, "importance": 0.0067, "name": "Rue Gourot", "id": "21058_0105_dfdb34", "label": "Rue Gourot 21570 Belan-sur-Ource"}}, {"geometry": {"coordinates": [4.65291, 47.945046], "type": "Point"}, "type": "Feature", "properties": {"context": "21, C\u00f4te-d'Or, Bourgogne-Franche-Comt\u00e9 (Bourgogne)", "y": 6761808.7, "citycode": "21058", "postcode": "21570", "score": 0.6369363636363635, "city": "Belan-sur-Ource", "type": "street", "x": 823392.2, "importance": 0.0063, "name": "Place du Four", "id": "21058_XXXX_35442d", "label": "Place du Four 21570 Belan-sur-Ource"}}, {"geometry": {"coordinates": [4.654077, 47.945581], "type": "Point"}, "type": "Feature", "properties": {"context": "21, C\u00f4te-d'Or, Bourgogne-Franche-Comt\u00e9 (Bourgogne)", "y": 6761870.0, "citycode": "21058", "postcode": "21570", "score": 0.6369272727272726, "city": "Belan-sur-Ource", "type": "street", "x": 823478.0, "importance": 0.0062, "name": "Rue de l'Entr\u00e9e du Pont", "id": "21058_XXXX_c78caf", "label": "Rue de l'Entr\u00e9e du Pont 21570 Belan-sur-Ource"}}, {"geometry": {"coordinates": [4.652977, 47.943864], "type": "Point"}, "type": "Feature", "properties": {"context": "21, C\u00f4te-d'Or, Bourgogne-Franche-Comt\u00e9 (Bourgogne)", "y": 6761677.5, "citycode": "21058", "postcode": "21570", "score": 0.6369181818181817, "city": "Belan-sur-Ource", "type": "street", "x": 823399.9, "importance": 0.0061, "name": "Place d'Arme", "id": "21058_XXXX_0117e4", "label": "Place d'Arme 21570 Belan-sur-Ource"}}, {"geometry": {"coordinates": [4.6534, 47.943341], "type": "Point"}, "type": "Feature", "properties": {"context": "21, C\u00f4te-d'Or, Bourgogne-Franche-Comt\u00e9 (Bourgogne)", "y": 6761620.1, "citycode": "21058", "postcode": "21570", "score": 0.6369181818181817, "city": "Belan-sur-Ource", "type": "street", "x": 823432.7, "importance": 0.0061, "name": "Place de la Fontaine", "id": "21058_XXXX_012825", "label": "Place de la Fontaine 21570 Belan-sur-Ource"}}, {"geometry": {"coordinates": [4.651971, 47.945164], "type": "Point"}, "type": "Feature", "properties": {"context": "21, C\u00f4te-d'Or, Bourgogne-Franche-Comt\u00e9 (Bourgogne)", "y": 6761820.3, "citycode": "21058", "postcode": "21570", "score": 0.6369181818181817, "city": "Belan-sur-Ource", "type": "street", "x": 823321.8, "importance": 0.0061, "name": "Rue du Trou des Champs", "id": "21058_0195_cc61bc", "label": "Rue du Trou des Champs 21570 Belan-sur-Ource"}}, {"geometry": {"coordinates": [4.653594, 47.947795], "type": "Point"}, "type": "Feature", "properties": {"context": "21, C\u00f4te-d'Or, Bourgogne-Franche-Comt\u00e9 (Bourgogne)", "y": 6762124.1, "citycode": "21058", "postcode": "21570", "score": 0.6369090909090909, "city": "Belan-sur-Ource", "type": "street", "x": 823480.5, "importance": 0.006, "name": "Rue du Fourneau", "id": "21058_0098_4345cd", "label": "Rue du Fourneau 21570 Belan-sur-Ource"}}, {"geometry": {"coordinates": [4.651992, 47.945629], "type": "Point"}, "type": "Feature", "properties": {"context": "21, C\u00f4te-d'Or, Bourgogne-Franche-Comt\u00e9 (Bourgogne)", "y": 6761872.1, "citycode": "21058", "postcode": "21570", "score": 0.6368818181818181, "city": "Belan-sur-Ource", "type": "street", "x": 823322.3, "importance": 0.0057, "name": "Rue du Puits", "id": "21058_0164_87f2da", "label": "Rue du Puits 21570 Belan-sur-Ource"}}, {"geometry": {"coordinates": [4.652461, 47.944413], "type": "Point"}, "type": "Feature", "properties": {"context": "21, C\u00f4te-d'Or, Bourgogne-Franche-Comt\u00e9 (Bourgogne)", "y": 6761737.7, "citycode": "21058", "postcode": "21570", "score": 0.6368727272727271, "city": "Belan-sur-Ource", "type": "street", "x": 823360.1, "importance": 0.0056, "name": "Rue d'Enfer", "id": "21058_XXXX_e5a304", "label": "Rue d'Enfer 21570 Belan-sur-Ource"}}, {"geometry": {"coordinates": [4.654437, 47.943257], "type": "Point"}, "type": "Feature", "properties": {"context": "21, C\u00f4te-d'Or, Bourgogne-Franche-Comt\u00e9 (Bourgogne)", "y": 6761612.4, "citycode": "21058", "postcode": "21570", "score": 0.6368727272727271, "city": "Belan-sur-Ource", "type": "street", "x": 823510.3, "importance": 0.0056, "name": "Rue des Grenouilles", "id": "21058_0113_89d74d", "label": "Rue des Grenouilles 21570 Belan-sur-Ource"}}, {"geometry": {"coordinates": [4.665699, 47.914689], "type": "Point"}, "type": "Feature", "properties": {"context": "21, C\u00f4te-d'Or, Bourgogne-Franche-Comt\u00e9 (Bourgogne)", "y": 6758456.3, "citycode": "21109", "postcode": "21570", "score": 0.6368454545454545, "city": "Brion-sur-Ource", "type": "street", "x": 824417.9, "importance": 0.0053, "name": "Rue de la Bergerie", "id": "21109_0025_7c7bd2", "label": "Rue de la Bergerie 21570 Brion-sur-Ource"}}, {"geometry": {"coordinates": [4.662763, 47.916095], "type": "Point"}, "type": "Feature", "properties": {"context": "21, C\u00f4te-d'Or, Bourgogne-Franche-Comt\u00e9 (Bourgogne)", "y": 6758603.9, "citycode": "21109", "postcode": "21570", "score": 0.6368363636363635, "city": "Brion-sur-Ource", "type": "street", "x": 824181.4, "importance": 0.0052, "name": "Grande Rue", "id": "21109_XXXX_0643ad", "label": "Grande Rue 21570 Brion-sur-Ource"}}], "version": "draft", "filters": {"postcode": "21570"}, "attribution": "BAN", "type": "FeatureCollection", "query": "21570"}