{"limit": 10, "features": [{"geometry": {"coordinates": [4.827082, 45.77381], "type": "Point"}, "properties": {"y": 6520997.9, "city": "Lyon", "label": "Boulevard de la Croix-Rousse 69001 Lyon", "score": 0.6725454545454546, "name": "Boulevard de la Croix-Rousse", "x": 841971.8, "id": "69381_XXXX_30d4b8", "type": "street", "citycode": "69381", "context": "69, Rh\u00f4ne, Auvergne-Rh\u00f4ne-Alpes (Rh\u00f4ne-Alpes)", "postcode": "69001", "importance": 0.398}, "type": "Feature"}, {"geometry": {"coordinates": [4.832907, 45.770426], "type": "Point"}, "properties": {"y": 6520625.0, "city": "Lyon", "label": "Rue Burdeau 69001 Lyon", "score": 0.6694636363636364, "name": "Rue Burdeau", "x": 842444.3, "id": "69381_1155_9f4691", "type": "street", "citycode": "69381", "context": "69, Rh\u00f4ne, Auvergne-Rh\u00f4ne-Alpes (Rh\u00f4ne-Alpes)", "postcode": "69001", "importance": 0.3641}, "type": "Feature"}, {"geometry": {"coordinates": [4.824062, 45.772016], "type": "Point"}, "properties": {"y": 6520793.3, "city": "Lyon", "label": "Rue des Chartreux 69001 Lyon", "score": 0.6691999999999999, "name": "Rue des Chartreux", "x": 841741.8, "id": "69381_1550_7e1062", "type": "street", "citycode": "69381", "context": "69, Rh\u00f4ne, Auvergne-Rh\u00f4ne-Alpes (Rh\u00f4ne-Alpes)", "postcode": "69001", "importance": 0.3612}, "type": "Feature"}, {"geometry": {"coordinates": [4.833575, 45.769202], "type": "Point"}, "properties": {"y": 6520498.1, "city": "Lyon", "label": "Rue des Capucins 69001 Lyon", "score": 0.6687545454545454, "name": "Rue des Capucins", "x": 842488.1, "id": "69381_1245_7229f2", "type": "street", "citycode": "69381", "context": "69, Rh\u00f4ne, Auvergne-Rh\u00f4ne-Alpes (Rh\u00f4ne-Alpes)", "postcode": "69001", "importance": 0.3563}, "type": "Feature"}, {"geometry": {"coordinates": [4.833583, 45.771008], "type": "Point"}, "properties": {"y": 6520698.6, "city": "Lyon", "label": "Rue des Tables Claudiennes 69001 Lyon", "score": 0.6686, "name": "Rue des Tables Claudiennes", "x": 842484.1, "id": "69381_XXXX_9334e7", "type": "street", "citycode": "69381", "context": "69, Rh\u00f4ne, Auvergne-Rh\u00f4ne-Alpes (Rh\u00f4ne-Alpes)", "postcode": "69001", "importance": 0.3546}, "type": "Feature"}, {"geometry": {"coordinates": [4.833451, 45.769771], "type": "Point"}, "properties": {"y": 6520570.0, "city": "Lyon", "label": "Rue Ren\u00e9 Leynaud 69001 Lyon", "score": 0.6686, "name": "Rue Ren\u00e9 Leynaud", "x": 842485.3, "id": "69381_5990_8902af", "type": "street", "citycode": "69381", "context": "69, Rh\u00f4ne, Auvergne-Rh\u00f4ne-Alpes (Rh\u00f4ne-Alpes)", "postcode": "69001", "importance": 0.3546}, "type": "Feature"}, {"geometry": {"coordinates": [4.833409, 45.767158], "type": "Point"}, "properties": {"y": 6520338.2, "city": "Lyon", "label": "Place des Terreaux 69001 Lyon", "score": 0.6682636363636363, "name": "Place des Terreaux", "x": 842470.4, "id": "69381_XXXX_97179a", "type": "street", "citycode": "69381", "context": "69, Rh\u00f4ne, Auvergne-Rh\u00f4ne-Alpes (Rh\u00f4ne-Alpes)", "postcode": "69001", "importance": 0.3509}, "type": "Feature"}, {"geometry": {"coordinates": [4.828992, 45.772181], "type": "Point"}, "properties": {"y": 6520820.5, "city": "Lyon", "label": "Rue du Bon-Pasteur 69001 Lyon", "score": 0.6680818181818181, "name": "Rue du Bon-Pasteur", "x": 842124.4, "id": "69381_XXXX_bc88f5", "type": "street", "citycode": "69381", "context": "69, Rh\u00f4ne, Auvergne-Rh\u00f4ne-Alpes (Rh\u00f4ne-Alpes)", "postcode": "69001", "importance": 0.3489}, "type": "Feature"}, {"geometry": {"coordinates": [4.833514, 45.771489], "type": "Point"}, "properties": {"y": 6520740.7, "city": "Lyon", "label": "Rue Imbert Colomes 69001 Lyon", "score": 0.667990909090909, "name": "Rue Imbert Colomes", "x": 842470.0, "id": "69381_3600_44d7f9", "type": "street", "citycode": "69381", "context": "69, Rh\u00f4ne, Auvergne-Rh\u00f4ne-Alpes (Rh\u00f4ne-Alpes)", "postcode": "69001", "importance": 0.3479}, "type": "Feature"}, {"geometry": {"coordinates": [4.830091, 45.768748], "type": "Point"}, "properties": {"y": 6520441.4, "city": "Lyon", "label": "Rue Sergent Blandan 69001 Lyon", "score": 0.6673636363636363, "name": "Rue Sergent Blandan", "x": 842218.6, "id": "69381_XXXX_9671bb", "type": "street", "citycode": "69381", "context": "69, Rh\u00f4ne, Auvergne-Rh\u00f4ne-Alpes (Rh\u00f4ne-Alpes)", "postcode": "69001", "importance": 0.341}, "type": "Feature"}], "attribution": "BAN", "version": "draft", "type": "FeatureCollection", "licence": "ODbL 1.0", "query": "69001", "filters": {"postcode": "69001"}}